{"business_id": "ae5tm46-ewAhUJ6HR4fXFA", "full_address": "12 Arrow St\nSte 108\nHarvard Square\nCambridge, MA 02138", "schools": ["Massachusetts Institute of Technology", "Harvard University"], "open": true, "categories": ["Massage", "Beauty and Spas"], "photo_url": "http://s3-media1.ak.yelpcdn.com/bphoto/IGjhD4m7mexe7N06OX9DcA/ms.jpg", "city": "Cambridge", "review_count": 4, "name": "Harvard Square Shiatsu", "neighborhoods": ["Harvard Square"], "url": "http://www.yelp.com/biz/harvard-square-shiatsu-cambridge", "longitude": -71.114815800000002, "state": "MA", "stars": 4.0, "latitude": 42.371132799999998, "type": "business"}
{"business_id": "QhAPtrNAliEQG-kFH9stCg", "full_address": "135 Gano St\nProvidence, RI 02906", "schools": ["Brown University"], "open": true, "categories": ["Shopping", "Flowers & Gifts", "Nurseries & Gardening", "Florists", "Home & Garden"], "photo_url": "http://s3-media2.ak.yelpcdn.com/bphoto/ViI-5YibHqjzkC7LTNActw/ms.jpg", "city": "Providence", "review_count": 3, "name": "A New Leaf", "neighborhoods": [], "url": "http://www.yelp.com/biz/a-new-leaf-providence", "longitude": -71.389896199999995, "state": "RI", "stars": 4.5, "latitude": 41.823258799999998, "type": "business"}
{"business_id": "Lp32rSc3OATt1P0Upa4Jxg", "full_address": "Cortez & US 52\nWest Lafayette, IN 47906", "schools": ["Purdue University"], "open": true, "categories": ["Greek", "Mediterranean", "Restaurants"], "photo_url": "http://s3-media4.ak.yelpcdn.com/bphoto/VGqzKXtMVlM_Hk3vqO1XYw/ms.jpg", "city": "West Lafayette", "review_count": 22, "name": "Parthenon Greek American Grill", "neighborhoods": [], "url": "http://www.yelp.com/biz/parthenon-greek-american-grill-west-lafayette", "longitude": -86.942598200000006, "state": "IN", "stars": 3.5, "latitude": 40.467655100000002, "type": "business"}
{"business_id": "cvvFEEEkZNyDbNy8UB6esw", "full_address": "5 Cambridge Ctr Ste 5\nKendall Square/MIT\nCambridge, MA 02142", "schools": ["Massachusetts Institute of Technology", "Harvard University"], "open": true, "categories": ["none"], "photo_url": "http://s3-media4.ak.yelpcdn.com/bphoto/msLux4WnRroX_aXWLc8nAQ/ms.jpg", "city": "Cambridge", "review_count": 2, "name": "Google Inc", "neighborhoods": ["Kendall Square/MIT"], "url": "http://www.yelp.com/biz/google-inc-cambridge", "longitude": -71.087480999999997, "state": "MA", "stars": 3.0, "latitude": 42.362912999999999, "type": "business"}
{"business_id": "ae5tm46-ewAhUJ6HR4fXFA", "full_address": "12 Arrow St\nSte 108\nHarvard Square\nCambridge, MA 02138", "schools": ["Massachusetts Institute of Technology", "Harvard University"], "open": true, "categories": ["Massage", "Beauty and Spas"], "photo_url": "http://s3-media1.ak.yelpcdn.com/bphoto/IGjhD4m7mexe7N06OX9DcA/ms.jpg", "city": "Cambridge", "review_count": 4, "name": "Harvard Square Shiatsu", "neighborhoods": ["Harvard Square"], "url": "http://www.yelp.com/biz/harvard-square-shiatsu-cambridge", "longitude": -71.114815800000002, "state": "MA", "stars": 4.0, "latitude": 42.371132799999998, "type": "business"}
{"business_id": "QhAPtrNAliEQG-kFH9stCg", "full_address": "135 Gano St\nProvidence, RI 02906", "schools": ["Brown University"], "open": true, "categories": ["Shopping", "Flowers & Gifts", "Nurseries & Gardening", "Florists", "Home & Garden"], "photo_url": "http://s3-media2.ak.yelpcdn.com/bphoto/ViI-5YibHqjzkC7LTNActw/ms.jpg", "city": "Providence", "review_count": 3, "name": "A New Leaf", "neighborhoods": [], "url": "http://www.yelp.com/biz/a-new-leaf-providence", "longitude": -71.389896199999995, "state": "RI", "stars": 4.5, "latitude": 41.823258799999998, "type": "business"}
{"business_id": "Lp32rSc3OATt1P0Upa4Jxg", "full_address": "Cortez & US 52\nWest Lafayette, IN 47906", "schools": ["Purdue University"], "open": true, "categories": ["Greek", "Mediterranean", "Restaurants"], "photo_url": "http://s3-media4.ak.yelpcdn.com/bphoto/VGqzKXtMVlM_Hk3vqO1XYw/ms.jpg", "city": "West Lafayette", "review_count": 22, "name": "Parthenon Greek American Grill", "neighborhoods": [], "url": "http://www.yelp.com/biz/parthenon-greek-american-grill-west-lafayette", "longitude": -86.942598200000006, "state": "IN", "stars": 3.5, "latitude": 40.467655100000002, "type": "business"}
{"business_id": "cvvFEEEkZNyDbNy8UB6esw", "full_address": "5 Cambridge Ctr Ste 5\nKendall Square/MIT\nCambridge, MA 02142", "schools": ["Massachusetts Institute of Technology", "Harvard University"], "open": true, "categories": ["none"], "photo_url": "http://s3-media4.ak.yelpcdn.com/bphoto/msLux4WnRroX_aXWLc8nAQ/ms.jpg", "city": "Cambridge", "review_count": 2, "name": "Google Inc", "neighborhoods": ["Kendall Square/MIT"], "url": "http://www.yelp.com/biz/google-inc-cambridge", "longitude": -71.087480999999997, "state": "MA", "stars": 3.0, "latitude": 42.362912999999999, "type": "business"}
{"business_id": "ae5tm46-ewAhUJ6HR4fXFA", "full_address": "12 Arrow St\nSte 108\nHarvard Square\nCambridge, MA 02138", "schools": ["Massachusetts Institute of Technology", "Harvard University"], "open": true, "categories": ["Massage", "Beauty and Spas"], "photo_url": "http://s3-media1.ak.yelpcdn.com/bphoto/IGjhD4m7mexe7N06OX9DcA/ms.jpg", "city": "Cambridge", "review_count": 4, "name": "Harvard Square Shiatsu", "neighborhoods": ["Harvard Square"], "url": "http://www.yelp.com/biz/harvard-square-shiatsu-cambridge", "longitude": -71.114815800000002, "state": "MA", "stars": 4.0, "latitude": 42.371132799999998, "type": "business"}
{"business_id": "QhAPtrNAliEQG-kFH9stCg", "full_address": "135 Gano St\nProvidence, RI 02906", "schools": ["Brown University"], "open": true, "categories": ["Shopping", "Flowers & Gifts", "Nurseries & Gardening", "Florists", "Home & Garden"], "photo_url": "http://s3-media2.ak.yelpcdn.com/bphoto/ViI-5YibHqjzkC7LTNActw/ms.jpg", "city": "Providence", "review_count": 3, "name": "A New Leaf", "neighborhoods": [], "url": "http://www.yelp.com/biz/a-new-leaf-providence", "longitude": -71.389896199999995, "state": "RI", "stars": 4.5, "latitude": 41.823258799999998, "type": "business"}
{"business_id": "Lp32rSc3OATt1P0Upa4Jxg", "full_address": "Cortez & US 52\nWest Lafayette, IN 47906", "schools": ["Purdue University"], "open": true, "categories": ["Greek", "Mediterranean", "Restaurants"], "photo_url": "http://s3-media4.ak.yelpcdn.com/bphoto/VGqzKXtMVlM_Hk3vqO1XYw/ms.jpg", "city": "West Lafayette", "review_count": 22, "name": "Parthenon Greek American Grill", "neighborhoods": [], "url": "http://www.yelp.com/biz/parthenon-greek-american-grill-west-lafayette", "longitude": -86.942598200000006, "state": "IN", "stars": 3.5, "latitude": 40.467655100000002, "type": "business"}
{"business_id": "cvvFEEEkZNyDbNy8UB6esw", "full_address": "5 Cambridge Ctr Ste 5\nKendall Square/MIT\nCambridge, MA 02142", "schools": ["Massachusetts Institute of Technology", "Harvard University"], "open": true, "categories": ["none"], "photo_url": "http://s3-media4.ak.yelpcdn.com/bphoto/msLux4WnRroX_aXWLc8nAQ/ms.jpg", "city": "Cambridge", "review_count": 2, "name": "Google Inc", "neighborhoods": ["Kendall Square/MIT"], "url": "http://www.yelp.com/biz/google-inc-cambridge", "longitude": -71.087480999999997, "state": "MA", "stars": 3.0, "latitude": 42.362912999999999, "type": "business"}
{"business_id": "ae5tm46-ewAhUJ6HR4fXFA", "full_address": "12 Arrow St\nSte 108\nHarvard Square\nCambridge, MA 02138", "schools": ["Massachusetts Institute of Technology", "Harvard University"], "open": true, "categories": ["Massage", "Beauty and Spas"], "photo_url": "http://s3-media1.ak.yelpcdn.com/bphoto/IGjhD4m7mexe7N06OX9DcA/ms.jpg", "city": "Cambridge", "review_count": 4, "name": "Harvard Square Shiatsu", "neighborhoods": ["Harvard Square"], "url": "http://www.yelp.com/biz/harvard-square-shiatsu-cambridge", "longitude": -71.114815800000002, "state": "MA", "stars": 4.0, "latitude": 42.371132799999998, "type": "business"}
{"business_id": "QhAPtrNAliEQG-kFH9stCg", "full_address": "135 Gano St\nProvidence, RI 02906", "schools": ["Brown University"], "open": true, "categories": ["Shopping", "Flowers & Gifts", "Nurseries & Gardening", "Florists", "Home & Garden"], "photo_url": "http://s3-media2.ak.yelpcdn.com/bphoto/ViI-5YibHqjzkC7LTNActw/ms.jpg", "city": "Providence", "review_count": 3, "name": "A New Leaf", "neighborhoods": [], "url": "http://www.yelp.com/biz/a-new-leaf-providence", "longitude": -71.389896199999995, "state": "RI", "stars": 4.5, "latitude": 41.823258799999998, "type": "business"}
{"business_id": "Lp32rSc3OATt1P0Upa4Jxg", "full_address": "Cortez & US 52\nWest Lafayette, IN 47906", "schools": ["Purdue University"], "open": true, "categories": ["Greek", "Mediterranean", "Restaurants"], "photo_url": "http://s3-media4.ak.yelpcdn.com/bphoto/VGqzKXtMVlM_Hk3vqO1XYw/ms.jpg", "city": "West Lafayette", "review_count": 22, "name": "Parthenon Greek American Grill", "neighborhoods": [], "url": "http://www.yelp.com/biz/parthenon-greek-american-grill-west-lafayette", "longitude": -86.942598200000006, "state": "IN", "stars": 3.5, "latitude": 40.467655100000002, "type": "business"}
{"business_id": "cvvFEEEkZNyDbNy8UB6esw", "full_address": "5 Cambridge Ctr Ste 5\nKendall Square/MIT\nCambridge, MA 02142", "schools": ["Massachusetts Institute of Technology", "Harvard University"], "open": true, "categories": ["none"], "photo_url": "http://s3-media4.ak.yelpcdn.com/bphoto/msLux4WnRroX_aXWLc8nAQ/ms.jpg", "city": "Cambridge", "review_count": 2, "name": "Google Inc", "neighborhoods": ["Kendall Square/MIT"], "url": "http://www.yelp.com/biz/google-inc-cambridge", "longitude": -71.087480999999997, "state": "MA", "stars": 3.0, "latitude": 42.362912999999999, "type": "business"}
{"business_id": "ae5tm46-ewAhUJ6HR4fXFA", "full_address": "12 Arrow St\nSte 108\nHarvard Square\nCambridge, MA 02138", "schools": ["Massachusetts Institute of Technology", "Harvard University"], "open": true, "categories": ["Massage", "Beauty and Spas"], "photo_url": "http://s3-media1.ak.yelpcdn.com/bphoto/IGjhD4m7mexe7N06OX9DcA/ms.jpg", "city": "Cambridge", "review_count": 4, "name": "Harvard Square Shiatsu", "neighborhoods": ["Harvard Square"], "url": "http://www.yelp.com/biz/harvard-square-shiatsu-cambridge", "longitude": -71.114815800000002, "state": "MA", "stars": 4.0, "latitude": 42.371132799999998, "type": "business"}
{"business_id": "QhAPtrNAliEQG-kFH9stCg", "full_address": "135 Gano St\nProvidence, RI 02906", "schools": ["Brown University"], "open": true, "categories": ["Shopping", "Flowers & Gifts", "Nurseries & Gardening", "Florists", "Home & Garden"], "photo_url": "http://s3-media2.ak.yelpcdn.com/bphoto/ViI-5YibHqjzkC7LTNActw/ms.jpg", "city": "Providence", "review_count": 3, "name": "A New Leaf", "neighborhoods": [], "url": "http://www.yelp.com/biz/a-new-leaf-providence", "longitude": -71.389896199999995, "state": "RI", "stars": 4.5, "latitude": 41.823258799999998, "type": "business"}
{"business_id": "Lp32rSc3OATt1P0Upa4Jxg", "full_address": "Cortez & US 52\nWest Lafayette, IN 47906", "schools": ["Purdue University"], "open": true, "categories": ["Greek", "Mediterranean", "Restaurants"], "photo_url": "http://s3-media4.ak.yelpcdn.com/bphoto/VGqzKXtMVlM_Hk3vqO1XYw/ms.jpg", "city": "West Lafayette", "review_count": 22, "name": "Parthenon Greek American Grill", "neighborhoods": [], "url": "http://www.yelp.com/biz/parthenon-greek-american-grill-west-lafayette", "longitude": -86.942598200000006, "state": "IN", "stars": 3.5, "latitude": 40.467655100000002, "type": "business"}
{"business_id": "cvvFEEEkZNyDbNy8UB6esw", "full_address": "5 Cambridge Ctr Ste 5\nKendall Square/MIT\nCambridge, MA 02142", "schools": ["Massachusetts Institute of Technology", "Harvard University"], "open": true, "categories": ["none"], "photo_url": "http://s3-media4.ak.yelpcdn.com/bphoto/msLux4WnRroX_aXWLc8nAQ/ms.jpg", "city": "Cambridge", "review_count": 2, "name": "Google Inc", "neighborhoods": ["Kendall Square/MIT"], "url": "http://www.yelp.com/biz/google-inc-cambridge", "longitude": -71.087480999999997, "state": "MA", "stars": 3.0, "latitude": 42.362912999999999, "type": "business"}
{"business_id": "ae5tm46-ewAhUJ6HR4fXFA", "full_address": "12 Arrow St\nSte 108\nHarvard Square\nCambridge, MA 02138", "schools": ["Massachusetts Institute of Technology", "Harvard University"], "open": true, "categories": ["Massage", "Beauty and Spas"], "photo_url": "http://s3-media1.ak.yelpcdn.com/bphoto/IGjhD4m7mexe7N06OX9DcA/ms.jpg", "city": "Cambridge", "review_count": 4, "name": "Harvard Square Shiatsu", "neighborhoods": ["Harvard Square"], "url": "http://www.yelp.com/biz/harvard-square-shiatsu-cambridge", "longitude": -71.114815800000002, "state": "MA", "stars": 4.0, "latitude": 42.371132799999998, "type": "business"}
{"business_id": "QhAPtrNAliEQG-kFH9stCg", "full_address": "135 Gano St\nProvidence, RI 02906", "schools": ["Brown University"], "open": true, "categories": ["Shopping", "Flowers & Gifts", "Nurseries & Gardening", "Florists", "Home & Garden"], "photo_url": "http://s3-media2.ak.yelpcdn.com/bphoto/ViI-5YibHqjzkC7LTNActw/ms.jpg", "city": "Providence", "review_count": 3, "name": "A New Leaf", "neighborhoods": [], "url": "http://www.yelp.com/biz/a-new-leaf-providence", "longitude": -71.389896199999995, "state": "RI", "stars": 4.5, "latitude": 41.823258799999998, "type": "business"}
{"business_id": "Lp32rSc3OATt1P0Upa4Jxg", "full_address": "Cortez & US 52\nWest Lafayette, IN 47906", "schools": ["Purdue University"], "open": true, "categories": ["Greek", "Mediterranean", "Restaurants"], "photo_url": "http://s3-media4.ak.yelpcdn.com/bphoto/VGqzKXtMVlM_Hk3vqO1XYw/ms.jpg", "city": "West Lafayette", "review_count": 22, "name": "Parthenon Greek American Grill", "neighborhoods": [], "url": "http://www.yelp.com/biz/parthenon-greek-american-grill-west-lafayette", "longitude": -86.942598200000006, "state": "IN", "stars": 3.5, "latitude": 40.467655100000002, "type": "business"}
{"business_id": "cvvFEEEkZNyDbNy8UB6esw", "full_address": "5 Cambridge Ctr Ste 5\nKendall Square/MIT\nCambridge, MA 02142", "schools": ["Massachusetts Institute of Technology", "Harvard University"], "open": true, "categories": ["none"], "photo_url": "http://s3-media4.ak.yelpcdn.com/bphoto/msLux4WnRroX_aXWLc8nAQ/ms.jpg", "city": "Cambridge", "review_count": 2, "name": "Google Inc", "neighborhoods": ["Kendall Square/MIT"], "url": "http://www.yelp.com/biz/google-inc-cambridge", "longitude": -71.087480999999997, "state": "MA", "stars": 3.0, "latitude": 42.362912999999999, "type": "business"}
{"business_id": "ae5tm46-ewAhUJ6HR4fXFA", "full_address": "12 Arrow St\nSte 108\nHarvard Square\nCambridge, MA 02138", "schools": ["Massachusetts Institute of Technology", "Harvard University"], "open": true, "categories": ["Massage", "Beauty and Spas"], "photo_url": "http://s3-media1.ak.yelpcdn.com/bphoto/IGjhD4m7mexe7N06OX9DcA/ms.jpg", "city": "Cambridge", "review_count": 4, "name": "Harvard Square Shiatsu", "neighborhoods": ["Harvard Square"], "url": "http://www.yelp.com/biz/harvard-square-shiatsu-cambridge", "longitude": -71.114815800000002, "state": "MA", "stars": 4.0, "latitude": 42.371132799999998, "type": "business"}
{"business_id": "QhAPtrNAliEQG-kFH9stCg", "full_address": "135 Gano St\nProvidence, RI 02906", "schools": ["Brown University"], "open": true, "categories": ["Shopping", "Flowers & Gifts", "Nurseries & Gardening", "Florists", "Home & Garden"], "photo_url": "http://s3-media2.ak.yelpcdn.com/bphoto/ViI-5YibHqjzkC7LTNActw/ms.jpg", "city": "Providence", "review_count": 3, "name": "A New Leaf", "neighborhoods": [], "url": "http://www.yelp.com/biz/a-new-leaf-providence", "longitude": -71.389896199999995, "state": "RI", "stars": 4.5, "latitude": 41.823258799999998, "type": "business"}
